Time,Rudder,Aileron,Elevator,Flap,Velocity kt,a_x fts^2,a_y fts^2,a_z fts^2,Side-slip angle deg,Angle of attack deg,Roll rate degs,Pitch rate degs,Yaw rate degs,Roll deg,Pitch deg
2779.49,0,-0.00384707625,-0.009454432781,0,108.1709452,0.06213254754,0.1273168121,-31.99322855,-0.2423889021,-0.305348875,-0.0008132222817,-0.02344458607,-0.005838402245,-0.2979728785,0.2534442928
2779.51,0,-0.00384707625,-0.009454432781,0,108.1707923,0.06209608186,0.127316937,-31.99316227,-0.2423893019,-0.3053472858,-0.0008070377717,-0.02346482519,-0.005839172977,-0.2979863349,0.2530625458
2779.54,0,-0.00384707625,-0.009454432781,0,108.1704913,0.06202989246,0.1273173891,-31.99300074,-0.2423901562,-0.3053439977,-0.000794287552,-0.02350646051,-0.00584069715,-0.2980129359,0.2522980584
2779.56,0,-0.00384707625,-0.009454432781,0,108.1703432,0.06199282297,0.1273175466,-31.99293748,-0.2423906099,-0.3053423909,-0.0007877565582,-0.02352786178,-0.005841464608,-0.2980260752,0.2519152751
2779.58,0,-0.00384707625,-0.009454432781,0,108.1701967,0.06195573396,0.1273177393,-31.9928746,-0.2423910805,-0.3053408372,-0.0007811874004,-0.02354776202,-0.005842245852,-0.2980391056,0.2515321415
2779.62,0,-0.00384707625,-0.009454432781,0,108.1698373,0.06186978999,0.127318408,-31.99268942,-0.2423923266,-0.305336884,-0.0007641619945,-0.02359676348,-0.005844258093,-0.2980711969,0.250572911
2779.63,0,-0.00384707625,-0.009454432781,0,108.1696964,0.06183205316,0.1273186541,-31.99262977,-0.2423928529,-0.3053353308,-0.0007572835537,-0.02361715666,-0.005845049263,-0.2980838327,0.2501886269
2779.67,0,-0.00384707625,-0.009454432781,0,108.1694193,0.06175659405,0.1273192356,-31.99251201,-0.2423939498,-0.3053323628,-0.0007434102719,-0.0236535714,-0.005846675304,-0.2981087593,0.2494190822
2779.68,0,-0.00384707625,-0.009454432781,0,108.1692832,0.06172525781,0.127319719,-31.99242145,-0.2423945199,-0.3053307973,-0.0007362941988,-0.02367229577,-0.005847486944,-0.2981210487,0.2490338689
2779.71,0,-0.00384707625,-0.009454432781,0,108.1691486,0.06168757343,0.1273200053,-31.99236645,-0.2423951037,-0.3053292646,-0.0007290554861,-0.02369249151,-0.005848301304,-0.2981332185,0.2486483266
2779.74,0,-0.00384707625,-0.009454432781,0,108.1688192,0.06159173005,0.1273208234,-31.99222827,-0.2423966166,-0.3053256603,-0.0007106620399,-0.02373649288,-0.00585046817,-0.298163112,0.2476830813
2779.76,0,-0.00384707625,-0.009454432781,0,108.1686903,0.06155971956,0.127321379,-31.99214129,-0.2423972433,-0.3053241524,-0.0007032390872,-0.02375425875,-0.005851316505,-0.2981748543,0.24729649
2779.79,0,-0.00384707625,-0.009454432781,0,108.1684371,0.06148241318,0.127322126,-31.99203781,-0.2423985303,-0.3053212693,-0.0006881355317,-0.02379120467,-0.005853040675,-0.2981979638,0.246522367
2779.81,0,-0.00384707625,-0.009454432781,0,108.168313,0.06144340992,0.1273225448,-31.99198619,-0.2423991894,-0.3053199039,-0.0006805476846,-0.02380747593,-0.005853928159,-0.2982093295,0.2461348594
2779.84,0,-0.00384707625,-0.009454432781,0,108.1680695,0.06137184681,0.1273235356,-31.99185415,-0.2424005372,-0.3053170412,-0.0006649786418,-0.02384376298,-0.005855700571,-0.298231678,0.2453590059
2779.86,0,-0.00384707625,-0.009454432781,0,108.1679501,0.0613322272,0.1273239698,-31.99180503,-0.2424012245,-0.305315703,-0.000657131914,-0.02386102902,-0.00585661155,-0.2982426567,0.244970618
2779.89,0,-0.00384707625,-0.009454432781,0,108.1677162,0.06125294747,0.1273249085,-31.99170829,-0.2424026226,-0.3053131539,-0.0006413765584,-0.02389119902,-0.005858474158,-0.2982642212,0.2441930222
2779.91,0,-0.00384707625,-0.009454432781,0,108.1676016,0.06122006466,0.1273255222,-31.99162976,-0.2424033332,-0.305311745,-0.0006332526716,-0.02390943888,-0.00585939186,-0.2982748053,0.2438038405
2779.94,0,-0.00384707625,-0.009454432781,0,108.1673773,0.06113958267,0.1273264745,-31.99153836,-0.2424047737,-0.3053092221,-0.0006170143738,-0.02394162607,-0.005861283454,-0.2982955676,0.2430246042
2779.96,0,-0.00384707625,-0.009454432781,0,108.1672675,0.06109932666,0.1273269835,-31.99149342,-0.2424055025,-0.3053080241,-0.0006088761524,-0.02395552887,-0.005862245995,-0.2983057456,0.2426345994
2779.99,0,-0.00384707625,-0.009454432781,0,108.1670528,0.06102528536,0.1273281392,-31.99137505,-0.2424069764,-0.3053054722,-0.0005922437654,-0.02398712694,-0.005864148905,-0.2983256916,0.2418538695
2780.01,0,-0.00384707625,-0.009454432781,0,108.1669479,0.06098443745,0.1273286489,-31.99133289,-0.2424077201,-0.3053042791,-0.0005838847872,-0.02400208054,-0.005865114542,-0.2983354559,0.2414631018
2780.03,0,-0.00384707625,-0.009454432781,0,108.1668445,0.06094357813,0.1273291796,-31.99129122,-0.2424084678,-0.3053031294,-0.0005755206352,-0.02401557057,-0.005866088282,-0.2983450809,0.2410720911
2780.07,0,-0.00384707625,-0.009454432781,0,108.1666886,0.0608884991,0.1273310526,-31.99119483,-0.2424101426,-0.3053013308,-0.0005627694436,-0.02403577664,-0.005867554738,-0.2983592571,0.2404851712
2780.09,0,-0.00384707625,-0.009454432781,0,108.1664876,0.0608061659,0.1273328958,-31.99111637,-0.2424121982,-0.3052989837,-0.0005452682332,-0.02406511723,-0.005869577874,-0.2983776555,0.2397017587
2780.12,0,-0.00384707625,-0.009454432781,0,108.1663479,0.06074412938,0.1273327642,-31.99106212,-0.2424127866,-0.3052973423,-0.0005322315939,-0.02408331423,-0.00587111219,-0.2983910696,0.2391135956
2780.13,0,-0.00384707625,-0.009454432781,0,108.1662078,0.0606887114,0.1273337315,-31.99097593,-0.2424139259,-0.3052955819,-0.0005191340777,-0.0241037172,-0.005872573532,-0.2984041594,0.2385249818
2780.17,0,-0.00384707625,-0.009454432781,0,108.1660306,0.06060480406,0.1273339492,-31.9909088,-0.2424149059,-0.3052934192,-0.0005017383474,-0.02412956337,-0.005874480463,-0.2984211015,0.237739349
2780.18,0,-0.00384707625,-0.009454432781,0,108.1659425,0.06056273011,0.1273345517,-31.99087475,-0.24241567,-0.3052924011,-0.00049308874,-0.02414033877,-0.005875412368,-0.2984293562,0.2373462249
2780.22,0,-0.00384707625,-0.009454432781,0,108.165771,0.06048505488,0.1273358725,-31.9907782,-0.2424172015,-0.3052902047,-0.0004754324542,-0.02416577611,-0.005877211355,-0.2984454298,0.2365594119
2780.23,0,-0.00384707625,-0.009454432781,0,108.1656877,0.06044238976,0.1273364556,-31.99074697,-0.2424179679,-0.3052891882,-0.0004665644669,-0.02417769251,-0.005878103382,-0.2984532451,0.2361656794
2780.27,0,-0.00384707625,-0.009454432781,0,108.1655258,0.06035703337,0.1273376651,-31.99068621,-0.2424195009,-0.3052872651,-0.0004488174424,-0.02419731605,-0.005879861315,-0.2984684322,0.2353776603
2780.28,0,-0.00384707625,-0.009454432781,0,108.1654472,0.06032111767,0.1273384024,-31.99062574,-0.242420268,-0.3052861629,-0.000439724244,-0.02421035717,-0.005880692528,-0.2984758029,0.2349833982
2780.32,0,-0.00384707625,-0.009454432781,0,108.1652949,0.0602345736,0.127339582,-31.99057056,-0.2424218011,-0.3052842453,-0.0004216005722,-0.02423228707,-0.005882341358,-0.2984900905,0.2341942599
2780.33,0,-0.00384707625,-0.009454432781,0,108.1652212,0.06019128759,0.127340196,-31.99054375,-0.2424225669,-0.3052833476,-0.0004125456393,-0.02424112616,-0.00588314716,-0.2984970078,0.2337994318
2780.37,0,-0.00384707625,-0.009454432781,0,108.1650785,0.06011088742,0.127341526,-31.99046163,-0.242424098,-0.305281389,-0.0003940508104,-0.02426510485,-0.005884667835,-0.2985103845,0.2330092438
2780.38,0,-0.00384707625,-0.009454432781,0,108.1650096,0.06006699817,0.1273421336,-31.99043715,-0.2424248624,-0.305280533,-0.0003848342075,-0.02427486308,-0.005885415576,-0.298516842,0.2326138647
2780.42,0,-0.00384707625,-0.009454432781,0,108.1648765,0.0599856184,0.1273435467,-31.99035722,-0.2424263889,-0.305278807,-0.0003663001431,-0.02429267238,-0.0058868399,-0.2985292963,0.2318226605
2780.43,0,-0.00384707625,-0.009454432781,0,108.1648123,0.05994179339,0.127344128,-31.99033671,-0.2424271513,-0.3052779359,-0.000356899664,-0.02430358565,-0.005887504988,-0.2985352904,0.231426817
2780.47,0,-0.00384707625,-0.009454432781,0,108.1646888,0.0598528296,0.1273453694,-31.99029461,-0.2424286735,-0.3052763765,-0.0003381520949,-0.02432077916,-0.005888791669,-0.2985468094,0.2306346303
2780.48,0,-0.00384707625,-0.009454432781,0,108.1646294,0.05980834589,0.1273460124,-31.99027449,-0.2424294333,-0.3052756449,-0.0003287852274,-0.02432726648,-0.005889399376,-0.2985523346,0.2302383371
2780.52,0,-0.00384707625,-0.009454432781,0,108.1645155,0.05972557205,0.1273473986,-31.990206,-0.2424309522,-0.3052739956,-0.0003096685886,-0.0243465987,-0.005890490816,-0.2985629115,0.229445336
2780.53,0,-0.00384707625,-0.009454432781,0,108.1644609,0.05968050396,0.1273480343,-31.99018847,-0.2424317107,-0.3052732843,-0.000300142349,-0.02435406909,-0.005891007943,-0.2985679613,0.2290486083
2780.57,0,-0.00384707625,-0.009454432781,0,108.1644079,0.05963543432,0.1273486858,-31.99017154,-0.2424324686,-0.3052726062,-0.0002906219005,-0.02436012997,-0.005891497602,-0.2985728524,0.228651762
2780.59,0,-0.00384707625,-0.009454432781,0,108.1642992,0.05955149444,0.1273518102,-31.99010458,-0.2424350444,-0.3052710837,-0.0002710187966,-0.02437607308,-0.005892413563,-0.2985821558,0.2278577407
2780.63,0,-0.00384707625,-0.009454432781,0,108.1642312,0.05948317247,0.1273518307,-31.990086,-0.2424356437,-0.3052700735,-0.0002562803106,-0.02438630132,-0.005893059829,-0.2985886995,0.2272618697
2780.65,0,-0.00384707625,-0.009454432781,0,108.1641374,0.05939818772,0.1273541487,-31.99002524,-0.2424376798,-0.3052687278,-0.0002366270331,-0.02439758386,-0.005893781024,-0.2985968563,0.2264670324
2780.67,0,-0.00384707625,-0.009454432781,0,108.1640778,0.05932963757,0.1273541849,-31.99001258,-0.2424382792,-0.3052677188,-0.0002217449392,-0.02440860006,-0.005894216609,-0.2986025389,0.2258706167
2780.68,0,-0.00384707625,-0.009454432781,0,108.1640413,0.0592836352,0.1273539742,-31.99000479,-0.2424385047,-0.3052671218,-0.0002119424984,-0.02441406503,-0.005894449178,-0.2986061216,0.225472864
2780.71,0,-0.00384707625,-0.009454432781,0,108.1640027,0.05923735073,0.1273546981,-31.98999499,-0.2424392607,-0.3052665644,-0.000202258965,-0.02441812188,-0.005894613068,-0.298609542,0.2250750262
2780.75,0,-0.00384707625,-0.009454432781,0,108.163913,0.05912797753,0.1273565585,-31.98994367,-0.2424411562,-0.3052649987,-0.000177382447,-0.02443291577,-0.005894861966,-0.2986173785,0.2240800781
2780.77,0,-0.00384707625,-0.009454432781,0,108.1638602,0.05905749815,0.1273585056,-31.98993131,-0.2424428242,-0.3052642162,-0.0001624706817,-0.02443908352,-0.005894897311,-0.2986215823,0.2234828201
2780.78,0,-0.00384707625,-0.009454432781,0,108.1638332,0.05901089976,0.1273583399,-31.98992808,-0.2424430619,-0.3052637221,-0.0001524470017,-0.02444153466,-0.00589489388,-0.2986241761,0.2230845721
2780.82,0,-0.00384707625,-0.009454432781,0,108.1637765,0.05892337272,0.1273599427,-31.98988824,-0.2424445994,-0.3052625591,-0.0001322282968,-0.02445286108,-0.005894657532,-0.2986288616,0.2222878625
2780.84,0,-0.00384707625,-0.009454432781,0,108.1637505,0.05887594198,0.1273606869,-31.98988505,-0.2424453725,-0.3052620906,-0.000122117754,-0.02445637209,-0.005894493366,-0.2986309516,0.2218893802
2780.86,0,-0.00384707625,-0.009454432781,0,108.1637108,0.05881101296,0.1273628424,-31.98984624,-0.2424470609,-0.3052613335,-0.0001067461799,-0.02446155804,-0.005894178116,-0.2986337708,0.2212915653
2780.89,0,-0.00384707625,-0.009454432781,0,108.1636721,0.05871582409,0.127363422,-31.9898486,-0.2424481044,-0.3052604126,-8.600746519e-05,-0.02447077312,-0.005893620024,-0.2986369247,0.2204942113
2780.91,0,-0.00384707625,-0.009454432781,0,108.1636532,0.05866779119,0.1273642051,-31.98984853,-0.2424488938,-0.3052600415,-7.569831071e-05,-0.02447309125,-0.005893276621,-0.2986382436,0.2200954355
2780.93,0,-0.00384707625,-0.009454432781,0,108.1636202,0.0585785002,0.1273659384,-31.9898192,-0.2424504863,-0.3052592076,-5.481507166e-05,-0.02447880853,-0.005892443564,-0.2986403644,0.2192977875
2780.97,0,-0.00384707625,-0.009454432781,0,108.1635996,0.0585055481,0.1273671394,-31.98982329,-0.242451694,-0.3052586746,-3.906205195e-05,-0.02448333115,-0.005891698888,-0.2986414958,0.2186993954
2780.98,0,-0.00384707625,-0.009454432781,0,108.1635879,0.05845697089,0.1273679532,-31.98982666,-0.2424525052,-0.3052583795,-2.849929464e-05,-0.02448447979,-0.005891171507,-0.2986420312,0.2183004152
2781.02,0,-0.00384707625,-0.009454432781,0,108.1635691,0.05836652775,0.1273697569,-31.9898042,-0.2424541443,-0.3052576869,-7.118871835e-06,-0.02448790007,-0.005889968291,-0.2986425725,0.2175024164
2781.04,0,-0.00384707625,-0.009454432781,0,108.1635628,0.05829257765,0.12737184,-31.98981128,-0.2424548706,-0.3052572401,9.129896364e-06,-0.024490731,-0.005888978146,-0.2986425084,0.2169038112
2781.07,0,-0.00384707625,-0.009454432781,0,108.1635544,0.05824353422,0.1273718737,-31.98982036,-0.2424562268,-0.3052570197,1.979582143e-05,-0.02449078998,-0.005888231209,-0.2986422408,0.2165047121
2781.08,0,-0.00384707625,-0.009454432781,0,108.1635467,0.05817602885,0.1273741902,-31.9897969,-0.2424580103,-0.3052565967,3.621260181e-05,-0.02449083976,-0.00588708756,-0.2986415034,0.2159060797
2781.12,0.05,-0.00384707625,-0.009454432781,0,108.1635504,0.04121460992,-0.2361932786,-32.00043045,-0.24341987,-0.3052560906,-0.04007427785,-0.02431346415,0.05484111673,-0.2986398746,0.2151078341
2781.13,0.05,-0.00384707625,-0.009454432781,0,108.1635466,0.04152628779,-0.2111073668,-31.99785771,-0.2462010729,-0.3052644727,-0.1066157463,-0.02441645203,0.1745467598,-0.2996029579,0.2147118558
2781.18,0.05,-0.00384707625,-0.009454432781,0,108.1635045,0.03986879133,-0.164161974,-31.99274051,-0.2576159946,-0.3053384121,-0.1929002902,-0.02596095697,0.4063665206,-0.3043846943,0.2139006278
2781.19,0.05,-0.00384707625,-0.009454432781,0,108.1634163,0.03653965475,-0.1294830607,-31.98863349,-0.2711030094,-0.3054591019,-0.2233808564,-0.02776736052,0.5727814414,-0.3095098989,0.2132508992
2781.21,0.05,-0.00384707625,-0.009454432781,0,108.1633282,0.03338934239,-0.106154657,-31.98568551,-0.282336194,-0.3055724217,-0.2299522453,-0.02906037116,0.6798205777,-0.313270891,0.2127919669
2781.24,0.05,-0.00384707625,-0.009454432781,0,108.163037,0.02502183746,-0.05826544206,-31.97924739,-0.3099147746,-0.3058693182,-0.2148501907,-0.03143558822,0.8837543655,-0.3208387537,0.2118108822
2781.26,0.05,-0.00384707625,-0.009454432781,0,108.1628277,0.0198746175,-0.03349358745,-31.97584959,-0.3261308339,-0.3060454894,-0.1949042771,-0.03236290922,0.9803357678,-0.324344377,0.2112921599
2781.29,0.05,-0.00384707625,-0.009454432781,0,108.1622591,0.007862732151,0.01800496092,-31.96891791,-0.3630747536,-0.3064270185,-0.1337582453,-0.03339989726,1.162030628,-0.3301462576,0.2102158712
2781.31,0.05,-0.00384707625,-0.009454432781,0,108.1618913,0.001087381237,0.04478167766,-31.96548599,-0.383659064,-0.3066195535,-0.09373392515,-0.03343472814,1.246900024,-0.3322148488,0.2096679496
2781.35,0.05,-0.00384707625,-0.009454432781,0,108.1609688,-0.01382352972,0.1003801399,-31.95919137,-0.4286791765,-0.3069743753,0.002710946475,-0.03240938546,1.404159582,-0.3341874433,0.2085807172
2781.37,0.05,-0.00384707625,-0.009454432781,0,108.1600957,-0.02602311143,0.1437782024,-31.95521973,-0.4655108597,-0.3071861443,0.08769416791,-0.03065335887,1.510847123,-0.333429957,0.2077970846
2781.38,0.05,-0.00384707625,-0.009454432781,0,108.1594288,-0.03455786424,0.1734490108,-31.95304805,-0.4913765678,-0.3072883628,0.1496479361,-0.0290263412,1.576480435,-0.331714356,0.207301482
2781.41,0.05,-0.00384707625,-0.009454432781,0,108.158682,-0.04338207396,0.2036571219,-31.95139379,-0.5181988579,-0.3073521068,0.2154284112,-0.02704697095,1.637657073,-0.3289498891,0.206834353
2781.44,0.05,-0.00384707625,-0.009454432781,0,108.1564637,-0.06643088249,0.2811609452,-31.94982239,-0.5889046683,-0.3073047398,0.3944886609,-0.02070889697,1.770854595,-0.3170538761,0.2058280533
2781.46,0.05,-0.00384707625,-0.009454432781,0,108.1554295,-0.07594550168,0.3127961886,-31.95033719,-0.6184326687,-0.3071896751,0.4711547534,-0.017700243,1.816177324,-0.3101622309,0.2055033702
2781.49,0.05,-0.00384707625,-0.009454432781,0,108.1530979,-0.0953229529,0.3767933586,-31.95368924,-0.6791744611,-0.3067731968,0.6315506009,-0.01105173311,1.893156129,-0.2924745241,0.2050102995
2781.51,0.05,-0.00384707625,-0.009454432781,0,108.1517971,-0.1051157763,0.4090193819,-31.95655748,-0.7102254754,-0.3064658645,0.7147352671,-0.007486878896,1.924836107,-0.2816037996,0.2048483925
2781.55,0.05,-0.00384707625,-0.009454432781,0,108.1489187,-0.1247568425,0.4735804323,-31.96474425,-0.7732847965,-0.3056433458,0.8857706166,-7.650080207e-05,1.974711904,-0.2556554981,0.2047052297
2781.58,0.05,-0.00384707625,-0.009454432781,0,108.1465101,-0.1394417697,0.5218246831,-31.9731003,-0.8211051618,-0.3048418457,1.017141015,0.005582600476,2.000487537,-0.2324202048,0.2047607076
2781.6,0.05,-0.00384707625,-0.009454432781,0,108.1438913,-0.1539885959,0.5696588034,-31.98331829,-0.8690839074,-0.3038828588,1.150254799,0.01119450585,2.016504447,-0.2058846074,0.2049569678
2781.63,0.05,-0.00384707625,-0.009454432781,0,108.1410577,-0.1683139856,0.6168567502,-31.99530711,-0.9169663139,-0.3027702031,1.284325511,0.01663927421,2.023000031,-0.1760117284,0.2052918156
2781.65,0.05,-0.00384707625,-0.009454432781,0,108.1380093,-0.182361914,0.6631989166,-32.00903804,-0.9645048767,-0.3015110754,1.418594513,0.02182506293,2.020252978,-0.1427840206,0.2057602946
2781.67,0.05,-0.00384707625,-0.009454432781,0,108.134747,-0.1960608112,0.7084733738,-32.02435972,-1.011460864,-0.300114656,1.552332468,0.02666574848,2.00858071,-0.1062026602,0.2063552108
2781.68,0.05,-0.00384707625,-0.009454432781,0,108.1324578,-0.2049633941,0.7379615496,-32.03535896,-1.042327199,-0.2991127999,1.640849589,0.02966013852,1.996013847,-0.07996069096,0.2068175628
2781.72,0.05,-0.00384707625,-0.009454432781,0,108.1275935,-0.2221791533,0.7950186598,-32.05915265,-1.102719281,-0.2969569023,1.815448612,0.03502759132,1.9599074,-0.0230728592,0.2078855167
2781.73,0.05,-0.00384707625,-0.009454432781,0,108.1250243,-0.230456212,0.8224785907,-32.07181238,-1.132120749,-0.2958112613,1.901150529,0.03737564329,1.936612082,0.007543274171,0.2084840543
2781.77,0.05,-0.00384707625,-0.009454432781,0,108.1196187,-0.2462788718,0.8750094948,-32.09834729,-1.189043002,-0.29340713,2.068459179,0.04135236981,1.880189171,0.07302235483,0.2097911729
2781.78,0.05,-0.00384707625,-0.009454432781,0,108.1167857,-0.2538095645,0.8999879856,-32.11213702,-1.216454702,-0.2921583777,2.149726453,0.0429765575,1.847337254,0.107837407,0.2104917297
2781.82,0.05,-0.00384707625,-0.009454432781,0,108.1108691,-0.2680461409,0.9471588961,-32.14039768,-1.268926309,-0.2895918954,2.306692928,0.04549870248,1.773074117,0.1814780749,0.2119667263
2781.84,0.05,-0.00384707625,-0.009454432781,0,108.1077898,-0.2747417758,0.9692753753,-32.15478416,-1.293893223,-0.2882840725,2.382097033,0.04640191824,1.731962796,0.220239736,0.2127331422
2781.86,0.05,-0.00384707625,-0.009454432781,0,108.103023,-0.284233269,1.000518535,-32.17649022,-1.329638072,-0.2863055751,2.490968822,0.04733462344,1.665755208,0.2807096581,0.213907964
2781.88,0.05,-0.00384707625,-0.009454432781,0,108.0997583,-0.2901828248,1.020013898,-32.19096753,-1.352273383,-0.2849824184,2.560543153,0.04768881595,1.618820108,0.3225186288,0.2147026063
2781.92,0.05,-0.00384707625,-0.009454432781,0,108.0912841,-0.3036904421,1.063904573,-32.22673032,-1.40443464,-0.2816936358,2.723123376,0.04771340886,1.492867556,0.4319741858,0.2167041264
2781.93,0.05,-0.00384707625,-0.009454432781,0,108.0877806,-0.3085419078,1.079465904,-32.24075201,-1.423449437,-0.2803976067,2.783345845,0.04741805191,1.439468934,0.4776138049,0.217502444
2781.97,0.05,-0.00384707625,-0.009454432781,0,108.0805954,-0.3172700044,1.107078574,-32.26798503,-1.458170444,-0.2778616532,2.895060173,0.04638584449,1.328403337,0.5718199712,0.2190801528
2781.99,0.05,-0.00384707625,-0.009454432781,0,108.0750669,-0.3229668538,1.124674873,-32.28757897,-1.481237641,-0.2760238228,2.970916437,0.04528401859,1.242018347,0.6448419555,0.2202377678
2782.01,0.05,-0.00384707625,-0.009454432781,0,108.0713134,-0.3263558703,1.134908494,-32.30015981,-1.495171345,-0.274835801,3.017594249,0.04442674338,1.183267143,0.6945553364,0.2209936528
2782.04,0.05,-0.00384707625,-0.009454432781,0,108.0636805,-0.3321440135,1.151776086,-32.32395899,-1.519519687,-0.2725629094,3.101387926,0.04248641641,1.06371021,0.7962233831,0.2224607111
2782.06,0.05,-0.00384707625,-0.009454432781,0,108.0598045,-0.3345508284,1.158413039,-32.33515034,-1.529920807,-0.2714836469,3.138428835,0.04143131907,1.003225977,0.8480712445,0.2231695804
2782.09,0.05,-0.00384707625,-0.009454432781,0,108.0519511,-0.3383907045,1.168121668,-32.3559377,-1.547163099,-0.2694518665,3.202672036,0.03923264743,0.881635236,0.9535235045,0.2245341491
2782.11,0.05,-0.00384707625,-0.009454432781,0,108.0479808,-0.3398270455,1.171213085,-32.3654887,-1.554007026,-0.2685034402,3.229847723,0.03811560993,0.8208370512,1.007018362,0.2251890724
2782.14,0.05,-0.00384707625,-0.009454432781,0,108.0399711,-0.3417391667,1.173935839,-32.38278045,-1.564167393,-0.2667497518,3.274299499,0.03589523039,0.6999835018,1.115270559,0.2264437136
2782.16,0.05,-0.00384707625,-0.009454432781,0,108.0359388,-0.342228916,1.173602755,-32.39052315,-1.567502359,-0.2659473984,3.291594775,0.0348180369,0.6402178189,1.169917999,0.227043795
2782.18,0.05,-0.00384707625,-0.009454432781,0,108.0298696,-0.3423869624,1.171042857,-32.4009555,-1.570358423,-0.2648398135,3.311430185,0.03326803509,0.5517883004,1.252387127,0.2279111063
2782.22,0,-0.00384707625,-0.009454432781,0,108.0217418,-0.317516225,1.526415371,-32.40187108,-1.569289439,-0.2635458695,3.366650033,0.03265646277,0.3763077418,1.362991982,0.2290095828
2782.23,0,-0.00384707625,-0.009454432781,0,108.0176821,-0.3168911869,1.49625166,-32.40917285,-1.564823754,-0.2629559285,3.435883371,0.03493269243,0.20106863,1.419412752,0.2295703269
2782.26,0,-0.00384707625,-0.009454432781,0,108.0096108,-0.3127742916,1.436135047,-32.42223764,-1.546898136,-0.2618601365,3.518499646,0.04126201508,-0.1380620894,1.535156015,0.2308260503
2782.29,0,-0.00384707625,-0.009454432781,0,108.0036346,-0.3072728157,1.389086676,-32.43059644,-1.525882969,-0.2611309786,3.53851291,0.04713245489,-0.3812533735,1.623346478,0.231920125
2782.31,0,-0.00384707625,-0.009454432781,0,107.9997034,-0.3025273135,1.356398411,-32.4353964,-1.508424144,-0.2606988945,3.534549436,0.05140462584,-0.5375248456,1.682318993,0.232734104
2782.33,0,-0.00384707625,-0.009454432781,0,107.9920046,-0.2906096578,1.287307711,-32.44290493,-1.465642017,-0.259987686,3.490174033,0.06043383334,-0.8348306248,1.799702657,0.23458302
2782.37,0,-0.00384707625,-0.009454432781,0,107.9864042,-0.2797014191,1.232007102,-32.4465748,-1.427061161,-0.2596075616,3.428672053,0.06735022444,-1.043542307,1.886486388,0.236170836
2782.38,0,-0.00384707625,-0.009454432781,0,107.9827671,-0.2715525363,1.19345116,-32.44799358,-1.398442646,-0.2594353407,3.375724937,0.07191494156,-1.175488158,1.943419929,0.2373259691
2782.42,-0.05,-0.00384707625,-0.009454432781,0,107.9757558,-0.2304465803,1.474606012,-32.43745996,-1.333783614,-0.2593019456,3.284170097,0.08276827354,-1.481763686,2.05438499,0.2398627819
2782.43,-0.05,-0.00384707625,-0.009454432781,0,107.9724007,-0.2207527776,1.407162039,-32.43862057,-1.296154994,-0.2593271192,3.273079875,0.09157768575,-1.714492397,2.109100512,0.2412937302
2782.46,-0.05,-0.00384707625,-0.009454432781,0,107.9675919,-0.2039551649,1.306055963,-32.43877561,-1.232621815,-0.259468174,3.213763572,0.1053630246,-2.0467692,2.190522143,0.2437216047
2782.49,-0.05,-0.00384707625,-0.009454432781,0,107.9616406,-0.1774739654,1.168475894,-32.43579735,-1.135565904,-0.2598741075,3.066688813,0.1239893822,-2.456787721,2.295994274,0.2475021438
2782.51,-0.05,-0.00384707625,-0.009454432781,0,107.9588915,-0.1626038822,1.098152552,-32.43291247,-1.082142747,-0.2601795573,2.968172653,0.1330899783,-2.647035924,2.346711025,0.2496251289
2782.53,-0.05,-0.00384707625,-0.009454432781,0,107.9563052,-0.1467090232,1.026712364,-32.42905908,-1.025699418,-0.2605573945,2.855075999,0.1418795856,-2.827132546,2.395723541,0.2518989809
2782.57,-0.05,-0.00384707625,-0.009454432781,0,107.9506089,-0.1027873326,0.8432384565,-32.41508553,-0.8726126957,-0.2618301732,2.51706494,0.1617347841,-3.231728312,2.509295167,0.2582007667
2782.58,-0.05,-0.00384707625,-0.009454432781,0,107.9486593,-0.08367181099,0.7680253775,-32.40778128,-0.8070905644,-0.2624726074,2.362734294,0.1685556414,-3.374914647,2.550613017,0.2609444319
2782.61,-0.05,-0.00384707625,-0.009454432781,0,107.9469085,-0.06373917039,0.6918949363,-32.39950077,-0.7394106994,-0.2631909211,2.19898772,0.1745974001,-3.507273819,2.589318409,0.2637983978
2782.64,-0.05,-0.00384707625,-0.009454432781,0,107.9434424,-0.01063099959,0.4983102692,-32.37462433,-0.5620639112,-0.2653095257,1.754257109,0.1857558259,-3.790371201,2.673684306,0.2713241898
2782.66,-0.05,-0.00384707625,-0.009454432781,0,107.9424345,0.01179188794,0.419920352,-32.36310108,-0.4883852097,-0.2662806753,1.56436475,0.1884526391,-3.88441105,2.702136286,0.2744494473
2782.68,-0.05,-0.00384707625,-0.009454432781,0,107.9416498,0.03481749758,0.3412008015,-32.35072216,-0.4134369797,-0.2673185178,1.368755788,0.1900496907,-3.96748713,2.72739877,0.2776144102
2782.72,-0.05,-0.00384707625,-0.009454432781,0,107.9406882,0.09469045501,0.1439690894,-32.3162652,-0.2217978601,-0.2701833661,0.8593410409,0.1889045031,-4.127523806,2.776024341,0.2855761974
2782.73,-0.05,-0.00384707625,-0.009454432781,0,107.9407108,0.119418258,0.06531635881,-32.30121834,-0.1439433429,-0.2714282976,0.649170738,0.1862889413,-4.172686826,2.789473228,0.2887281529
2782.77,-0.05,-0.00384707625,-0.009454432781,0,107.941464,0.1699111069,-0.09070768756,-32.26918189,0.01277505297,-0.2740681249,0.2213252322,0.1772216666,-4.231335277,2.805784214,0.2948610227
2782.78,-0.05,-0.00384707625,-0.009454432781,0,107.9419225,0.1556227978,-0.167787077,-32.25255986,0.09126759787,-0.2754526904,0.004846706427,0.1726042016,-4.244962557,2.808571361,0.2978021018
2782.81,-0.05,-0.00384707625,-0.009454432781,0,107.9421059,0.1217139658,-0.2441657113,-32.23595558,0.1696053841,-0.2768300192,-0.2125819093,0.170983883,-4.2480806,2.807746008,0.3006780247
2782.84,-0.05,-0.00384707625,-0.009454432781,0,107.9415444,0.041516926,-0.4311113485,-32.19916447,0.3636035873,-0.2798294418,-0.756810883,0.1769645212,-4.211338427,2.789810684,0.3078789121
2782.86,-0.05,-0.00384707625,-0.009454432781,0,107.9409164,0.01142850931,-0.5038956536,-32.18779606,0.4400116858,-0.2807259555,-0.9734204875,0.1821277767,-4.179483968,2.776292517,0.3108536051
2782.89,-0.05,-0.00384707625,-0.009454432781,0,107.9389816,-0.04516733,-0.6452513,-32.17294921,0.5898790832,-0.2818269986,-1.402092387,0.1947939799,-4.08791352,2.73846569,0.3170843385
2782.91,-0.05,-0.00384707625,-0.009454432781,0,107.9376802,-0.07163424869,-0.7135453519,-32.16982442,0.6630253657,-0.2819979981,-1.613219458,0.2015073813,-4.028817744,2.714214116,0.320360826
2782.94,-0.05,-0.00384707625,-0.009454432781,0,107.9344261,-0.1208848952,-0.8447101584,-32.17241876,0.8050028759,-0.2815545374,-2.026819605,0.2139718516,-3.885665626,2.655234898,0.3272401151
2782.96,-0.05,-0.00384707625,-0.009454432781,0,107.9324811,-0.1436917998,-0.9073356898,-32.17804816,0.8735560475,-0.2809492731,-2.228440616,0.2191534004,-3.802311079,2.620609408,0.3308281936
2782.99,-0.05,-0.00384707625,-0.009454432781,0,107.9279769,-0.1857408247,-1.026105476,-32.19717801,1.005144007,-0.2790329627,-2.619305403,0.2262834551,-3.613878075,2.541394307,0.338231607
2783.01,-0.05,-0.00384707625,-0.009454432781,0,107.9254275,-0.2050195888,-1.082040959,-32.2102009,1.06793994,-0.2777584021,-2.807788339,0.2278910435,-3.509559199,2.496947599,0.3420086449
2783.03,-0.05,-0.00384707625,-0.009454432781,0,107.9212513,-0.2318469297,-1.161370534,-32.23338434,1.158077799,-0.2755143396,-3.080820848,0.2275371015,-3.341547492,2.424453588,0.3477047138
2783.07,-0.05,-0.00384707625,-0.009454432781,0,107.9150395,-0.2638400511,-1.258177647,-32.26942839,1.270171974,-0.2720354654,-3.425046693,0.2215979188,-3.098091855,2.317392918,0.3552244026
2783.08,-0.05,-0.00384707625,-0.009454432781,0,107.9116785,-0.2782751487,-1.30257452,-32.28889833,1.322554489,-0.2701475816,-3.587983534,0.216247773,-2.968939954,2.259622281,0.3588932331
2783.12,-0.05,-0.00384707625,-0.009454432781,0,107.9044772,-0.3041954727,-1.383067755,-32.32926001,1.419609097,-0.266211355,-3.89414645,0.2009534416,-2.697823113,2.136123747,0.3659182533
2783.14,-0.05,-0.00384707625,-0.009454432781,0,107.9006516,-0.315728467,-1.419068736,-32.3494982,1.464151414,-0.2642159414,-4.03688908,0.1911430274,-2.556675569,2.070618324,0.369224409
2783.16,-0.05,-0.00384707625,-0.009454432781,0,107.8946498,-0.3313106436,-1.467659551,-32.37907038,1.525829647,-0.2612592058,-4.237479308,0.1739805159,-2.339116699,1.967992827,0.3738602013
2783.19,-0.05,-0.00384707625,-0.009454432781,0,107.8862159,-0.3490344759,-1.52223193,-32.41576194,1.598261488,-0.2575055163,-4.478749095,0.1471532675,-2.040273526,1.823646992,0.3793295722
2783.21,-0.05,-0.00384707625,-0.009454432781,0,107.8818267,-0.3566336765,-1.54510919,-32.43238419,1.630201636,-0.2557556983,-4.587825511,0.1323482875,-1.888001423,1.748537971,0.3817194047
2783.24,-0.05,-0.00384707625,-0.009454432781,0,107.8727515,-0.3694002773,-1.582043823,-32.46117278,1.685429495,-0.2525971176,-4.782286019,0.1006615931,-1.57973915,1.59309579,0.3857392098
2783.26,-0.05,-0.00384707625,-0.009454432781,0,107.8680833,-0.3746111319,-1.596123335,-32.4730528,1.708698077,-0.2512173586,-4.867504176,0.08407714653,-1.424527638,1.513027127,0.387348267
2783.29,-0.05,-0.00384707625,-0.009454432781,0,107.8585309,-0.3827595,-1.615612326,-32.49114434,1.746548926,-0.2489134796,-5.013658978,0.05016084214,-1.113845912,1.348864811,0.3897309756
2783.31,-0.05,-0.00384707625,-0.009454432781,0,107.8536649,-0.3857180304,-1.621081996,-32.49715521,1.761153209,-0.2480057018,-5.074554472,0.03310691538,-0.9591157963,1.265041327,0.390498371
2783.34,-0.05,-0.00384707625,-0.009454432781,0,107.843799,-0.3894971778,-1.623684362,-32.50298724,1.781823116,-0.2467057704,-5.172030328,-0.000516164959,-0.6526673424,1.094586298,0.3911867258
2783.37,-0.05,-0.00384707625,-0.009454432781,0,107.8363225,-0.3904913648,-1.618537337,-32.5018293,1.78997617,-0.2461911935,-5.224023602,-0.02483363945,-0.4268189885,0.9648186063,0.39097744
2783.38,-0.05,-0.00384707625,-0.009454432781,0,107.8313089,-0.3902909607,-1.611835126,-32.49842119,1.791983486,-0.2460673084,-5.248757088,-0.04041903209,-0.2787710844,0.8776400383,0.390504585
2783.42,-0.05,-0.00384707625,-0.009454432781,0,107.8212779,-0.3878945334,-1.590883966,-32.48558849,1.787990472,-0.2463355855,-5.274825663,-0.06966005461,0.009875368188,0.7022746625,0.3888004155
2783.44,-0.05,-0.00384707625,-0.009454432781,0,107.8137821,-0.3843691781,-1.568854758,-32.47086107,1.778208292,-0.2469711473,-5.274379557,-0.08960601593,0.2186795429,0.5703761347,0.3869036401
2783.46,-0.05,-0.00384707625,-0.009454432781,0,107.8088041,-0.3812231167,-1.551314923,-32.4588107,1.768570561,-0.2475907972,-5.26482714,-0.1018467894,0.3537028841,0.4825017356,0.3853689368
2783.48,-0.05,-0.00384707625,-0.009454432781,0,107.7989579,-0.3730563522,-1.509764742,-32.42971435,1.742134072,-0.2492676247,-5.224259299,-0.123590012,0.6125597354,0.3074407163,0.3817163391
2783.52,-0.05,-0.00384707625,-0.009454432781,0,107.791692,-0.3653275519,-1.473300085,-32.40392467,1.716338818,-0.2508749445,-5.175789494,-0.1373978613,0.7959771068,0.1772097594,0.3785274445
2783.55,-0.05,-0.00384707625,-0.009454432781,0,107.7869187,-0.359441703,-1.446645583,-32.38510192,1.696452192,-0.2520959527,-5.135266417,-0.1453907137,0.9127391081,0.09110838729,0.376217362
2783.58,-0.05,-0.00384707625,-0.009454432781,0,107.7775638,-0.3459604429,-1.388150764,-32.34403037,1.650611485,-0.2548531911,-5.035517709,-0.1584666676,1.132147092,-0.07888444449,0.3712279012
2783.58,-0.05,-0.00384707625,-0.009454432781,0,107.7775638,-0.3459604429,-1.388150764,-32.34403037,1.650611485,-0.2548531911,-5.035517709,-0.1584666676,1.132147092,-0.07888444449,0.3712279012
2783.61,-0.05,-0.00384707625,-0.009454432781,0,107.7685298,-0.3302916835,-1.323428178,-32.29921185,1.597291948,-0.2579637288,-4.912423353,-0.1677732397,1.331593834,-0.2452554747,0.3658524837
2783.63,-0.05,-0.00384707625,-0.009454432781,0,107.7619929,-0.3171955531,-1.271304691,-32.26378414,1.552852274,-0.2604801464,-4.805998883,-0.1724122606,1.467372751,-0.3672013062,0.3616416662
2783.68,-0.05,-0.00384707625,-0.009454432781,0,107.7515947,-0.2929759935,-1.178670359,-32.20240476,1.471299832,-0.2649250147,-4.604434114,-0.1760745439,1.666204679,-0.5641887027,0.3544254924
2783.69,-0.05,-0.00384707625,-0.009454432781,0,107.7456747,-0.2771320988,-1.120223959,-32.16484618,1.4184364,-0.2676905221,-4.470510845,-0.1760998641,1.768535685,-0.6782011052,0.3500482729
2783.72,-0.05,-0.00384707625,-0.009454432781,0,107.7400308,-0.2603964526,-1.060073351,-32.1271688,1.363054539,-0.2704934936,-4.328028593,-0.1747130587,1.857880873,-0.7887923077,0.3456829047
2783.73,-0.05,-0.00384707625,-0.009454432781,0,107.7364091,-0.2487848787,-1.019204563,-32.10215064,1.324905988,-0.2723692736,-4.228771006,-0.1730996381,1.91016479,-0.8605164649,0.3427959965
2783.77,-0.05,-0.00384707625,-0.009454432781,0,107.7295531,-0.2245809814,-0.9360902776,-32.0527156,1.246140723,-0.2761035108,-4.021330888,-0.1684948092,1.99718164,-0.9989125645,0.3371167802
2783.78,-0.05,-0.00384707625,-0.009454432781,0,107.7263195,-0.2120510512,-0.8940550896,-32.02849563,1.205732834,-0.2779483778,-3.913739375,-0.1656161013,2.031917023,-1.06548944,0.334338918
2783.82,-0.05,-0.00384707625,-0.009454432781,0,107.7202517,-0.1862646014,-0.8095339838,-31.9813478,1.123386529,-0.2815624836,-3.692289149,-0.1589990086,2.083949364,-1.193200106,0.3289356466
2783.83,-0.05,-0.00384707625,-0.009454432781,0,107.7174207,-0.1730743661,-0.7672472347,-31.95858071,1.081653653,-0.2833208713,-3.57901758,-0.1553754289,2.101328467,-1.254268342,0.3263188881
2783.87,-0.05,-0.00384707625,-0.009454432781,0,107.71217,-0.1462483821,-0.6830992059,-31.91488852,0.9975735898,-0.2867171177,-3.348834261,-0.1477539915,2.119110447,-1.370703305,0.3212699412
2783.88,-0.05,-0.00384707625,-0.009454432781,0,107.7097516,-0.1326748655,-0.6414226557,-31.89405422,0.9554241123,-0.2883470352,-3.23249465,-0.1438544219,2.119668247,-1.426033573,0.3188411562
2783.91,-0.05,-0.00384707625,-0.009454432781,0,107.7074713,-0.1190299054,-0.6001291847,-31.8739134,0.9133306091,-0.2899268191,-3.115698044,-0.1399612832,2.114792895,-1.479422638,0.3164770804
2783.94,-0.05,-0.00384707625,-0.009454432781,0,107.7023732,-0.08486473824,-0.4991344838,-31.82699832,0.8089549923,-0.2936407161,-2.823505175,-0.1304955645,2.079547282,-1.604371366,0.3108466504
2783.96,-0.05,-0.00384707625,-0.009454432781,0,107.700573,-0.07124807301,-0.4598419018,-31.80959895,0.7677851632,-0.2950264595,-2.707247012,-0.1269105379,2.056547651,-1.650945148,0.308702875
2783.99,-0.05,-0.00384707625,-0.009454432781,0,107.697376,-0.04429935648,-0.3835716798,-31.77734439,0.686915077,-0.2976192362,-2.477202264,-0.1202461515,1.996044134,-1.738301612,0.3045887216
2784.01,-0.05,-0.00384707625,-0.009454432781,0,107.695976,-0.03102370895,-0.3467335626,-31.76246842,0.6473785525,-0.2988245753,-2.363906548,-0.1172096779,1.958842166,-1.779115199,0.3026124189
2784.04,-0.05,-0.00384707625,-0.009454432781,0,107.6935624,-0.005015638372,-0.2759764092,-31.73519757,0.5704897706,-0.3010509739,-2.141938688,-0.1118202314,1.871349914,-1.855120518,0.2988040035
2784.06,-0.05,-0.00384707625,-0.009454432781,0,107.6925442,0.007650065042,-0.2421781674,-31.72282751,0.5332830564,-0.3020721837,-2.033710567,-0.1094909627,1.821404856,-1.890366746,0.2969640917
2784.09,-0.05,-0.00384707625,-0.009454432781,0,107.6908713,0.03217037658,-0.1780137438,-31.70054641,0.461684208,-0.3039325999,-1.823811515,-0.1055912446,1.710024683,-1.955509753,0.2933922967
2784.11,-0.05,-0.00384707625,-0.009454432781,0,107.6902104,0.04397723693,-0.1477446537,-31.69058074,0.4274175255,-0.3047730229,-1.722531547,-0.1040271624,1.648968711,-1.98548215,0.2916519601
2784.16,-0.05,-0.00384707625,-0.009454432781,0,107.6892234,0.06653125182,-0.09105321694,-31.67306092,0.3622367251,-0.3062792206,-1.528217619,-0.1016581628,1.517105618,-2.040441573,0.2882410412
2784.16,-0.05,-0.00384707625,-0.009454432781,0,107.6892234,0.06653125182,-0.09105321694,-31.67306092,0.3622367251,-0.3062792206,-1.528217619,-0.1016581628,1.517105618,-2.040441573,0.2882410412
2784.19,-0.05,-0.00384707625,-0.009454432781,0,107.6885243,0.09740735641,-0.01616580645,-31.65235192,0.2735987505,-0.3081191945,-1.259786846,-0.09987915661,1.297978687,-2.111142331,0.2832379047
2784.23,-0.05,-0.00384707625,-0.009454432781,0,107.688484,0.1068245504,0.005972449391,-31.64687877,0.2466626523,-0.3086259647,-1.177030123,-0.09971607014,1.220078039,-2.131790461,0.2815850897
2784.24,-0.05,-0.00384707625,-0.009454432781,0,107.6886587,0.1242458045,0.04588386758,-31.63793465,0.1969202414,-0.3094882856,-1.02233585,-0.09994081205,1.058253412,-2.169053072,0.2782814257
2784.26,-0.05,-0.00384707625,-0.009454432781,0,107.6888823,0.1322252169,0.06362283819,-31.6344025,0.1741751227,-0.3098464987,-0.9506080065,-0.1002975662,0.9747536432,-2.18578927,0.2766247193
2784.29,-0.05,-0.00384707625,-0.009454432781,0,107.6895362,0.1466355146,0.09462495382,-31.62921707,0.1330492318,-0.3104247897,-0.8188368535,-0.1014093989,0.8036384131,-2.215788152,0.2732888641
2784.31,-0.05,-0.00384707625,-0.009454432781,0,107.689966,0.1530522018,0.1078773786,-31.62749525,0.1147056879,-0.3106476428,-0.7589397032,-0.1021240676,0.7164439292,-2.229181728,0.2716056213
2784.34,-0.05,-0.00384707625,-0.009454432781,0,107.691008,0.1642781537,0.1298879599,-31.62566646,0.08251941668,-0.3109673006,-0.6514094138,-0.1037816912,0.5398229274,-2.253092805,0.2682006611
2784.36,-0.05,-0.00384707625,-0.009454432781,0,107.6916109,0.1690702297,0.1386565089,-31.62555343,0.06869047505,-0.311066779,-0.6038601198,-0.1046872905,0.4508065034,-2.263747204,0.2664766672
2784.39,-0.05,-0.00384707625,-0.009454432781,0,107.6929567,0.1770076764,0.1517725457,-31.62680703,0.04556853181,-0.3111511592,-0.5213263884,-0.1065568225,0.2723656195,-2.282800509,0.2629824165
2784.41,-0.05,-0.00384707625,-0.009454432781,0,107.6936901,0.1801591376,0.1561505645,-31.6281076,0.03626805169,-0.3111381664,-0.4863649873,-0.1074896985,0.1833327633,-2.291339233,0.2612117706
2784.44,-0.05,-0.00384707625,-0.009454432781,0,107.6952548,0.1848137968,0.1606414304,-31.63210825,0.02214401655,-0.3110073104,-0.4290379748,-0.109274863,0.006590914278,-2.306791136,0.2576242795
2784.46,-0.05,-0.00384707625,-0.009454432781,0,107.6960767,0.1863323964,0.1608022079,-31.63474345,0.01729304509,-0.3108913697,-0.4066379346,-0.1100967581,-0.08075221066,-2.313844075,0.2558085803
2784.48,-0.05,-0.00384707625,-0.009454432781,0,107.6977769,0.1877935346,0.1570930026,-31.6411836,0.01192127486,-0.3105625948,-0.3742098531,-0.1115454372,-0.252505276,-2.326950539,0.2521378012
2784.52,-0.05,-0.00384707625,-0.009454432781,0,107.6990837,0.1875345567,0.1509080457,-31.6470357,0.0115899866,-0.3102345636,-0.3605365745,-0.1124225283,-0.3780978068,-2.336175035,0.2493548515
2784.57,-0.05,-0.00384707625,-0.009454432781,0,107.6999619,0.1867399758,0.1452297423,-31.65138825,0.01307912928,-0.309978509,-0.3563851554,-0.1128911668,-0.4599948192,-2.342162503,0.2474879586
2784.57,-0.05,-0.00384707625,-0.009454432781,0,107.6999619,0.1867399758,0.1452297423,-31.65138825,0.01307912928,-0.309978509,-0.3563851554,-0.1128911668,-0.4599948192,-2.342162503,0.2474879586
2784.58,-0.05,-0.00384707625,-0.009454432781,0,107.702568,0.1815213882,0.1211613416,-31.66643872,0.02540094125,-0.3090382661,-0.3669717346,-0.11369851,-0.6952830335,-2.3600644,0.2418492165
2784.62,-0.05,-0.00384707625,-0.009454432781,0,107.7042811,0.1758183301,0.09966838521,-31.6780881,0.03980244531,-0.3082748231,-0.3923812667,-0.1137055716,-0.8421341042,-2.37257721,0.2380754656
2784.63,-0.05,-0.00384707625,-0.009454432781,0,107.7051032,0.1723587022,0.08742700373,-31.68431507,0.04873653216,-0.3078539609,-0.4103008803,-0.1135546179,-0.9121924441,-2.379187888,0.2361895255
2784.67,-0.05,-0.00384707625,-0.009454432781,0,107.7066766,0.1642859072,0.06019069811,-31.69765139,0.06985359722,-0.3069377426,-0.4560243102,-0.1129462138,-1.045041062,-2.393402291,0.2324280337
2784.68,-0.05,-0.00384707625,-0.009454432781,0,107.7074213,0.1597182632,0.04529564572,-31.70470523,0.0819435476,-0.3064436991,-0.4835935262,-0.1124971983,-1.107640235,-2.401114238,0.2305558235
2784.72,-0.05,-0.00384707625,-0.009454432781,0,107.7088109,0.1496265501,0.01320875511,-31.71949304,0.1089428292,-0.3053871802,-0.5475234992,-0.1113460844,-1.224767751,-2.418003169,0.2268361567
2784.75,-0.05,-0.00384707625,-0.009454432781,0,107.7094502,0.144136656,-0.003878418133,-31.7272324,0.1237510122,-0.3048264664,-0.5836219953,-0.1106551233,-1.279151422,-2.427276036,0.2249914055
2784.77,-0.05,-0.00384707625,-0.009454432781,0,107.7105966,0.1323814441,-0.03987073619,-31.74329748,0.1557227963,-0.3036444587,-0.6634015178,-0.1090793387,-1.379255166,-2.447701621,0.2213381227
2784.78,-0.05,-0.00384707625,-0.009454432781,0,107.711114,0.1261644033,-0.05867132339,-31.75157464,0.1727817826,-0.3030247817,-0.7067989684,-0.1082171761,-1.42487689,-2.458936632,0.2195315913
2784.82,-0.05,-0.00384707625,-0.009454432781,0,107.7119888,0.1131318416,-0.09760120876,-31.76864097,0.2087691404,-0.3017340627,-0.7998819822,-0.1063791713,-1.507073227,-2.483638945,0.215962476
2784.83,-0.05,-0.00384707625,-0.009454432781,0,107.7123499,0.1063657291,-0.1176233013,-31.77737226,0.2275887303,-0.3010651318,-0.8492695504,-0.1054220659,-1.543595997,-2.497174053,0.2142010158
2784.86,-0.05,-0.00384707625,-0.009454432781,0,107.7129111,0.09244525092,-0.1585106172,-31.79511764,0.2666035698,-0.2996859292,-0.9529810074,-0.1034865001,-1.607417024,-2.526762962,0.2107258597
2784.88,-0.05,-0.00384707625,-0.009454432781,0,107.7130206,0.08889630834,-0.1688682616,-31.79961192,0.2766040875,-0.2993335009,-0.9798260494,-0.1030038076,-1.621447295,-2.534704374,0.2098670685
2784.91,-0.05,-0.00384707625,-0.009454432781,0,107.7133009,0.07450771235,-0.2106487606,-31.81773851,0.3173827512,-0.2978986695,-1.090301054,-0.1011080437,-1.669888679,-2.568733709,0.206471533
2784.94,-0.05,-0.00384707625,-0.009454432781,0,107.7133438,0.05993526785,-0.2526752758,-31.8359557,0.359079783,-0.2964320575,-1.204809209,-0.09932503463,-1.706142406,-2.606499149,0.2031374105
2784.96,-0.05,-0.00384707625,-0.009454432781,0,107.7132777,0.05262209277,-0.2736522664,-31.84507166,0.3801386916,-0.2956907887,-1.263194976,-0.0984925067,-1.719763925,-2.626821741,0.2014920304
2784.98,-0.05,-0.00384707625,-0.009454432781,0,107.7130693,0.0416746996,-0.3049337166,-31.85867886,0.4118421087,-0.2945734473,-1.351764909,-0.09733374469,-1.734667076,-2.659137593,0.1990491077
2785.02,-0.05,-0.00384707625,-0.009454432781,0,107.7125715,0.0272170256,-0.3460528187,-31.87657097,0.4540568849,-0.2930821634,-1.470931992,-0.09599256476,-1.744459733,-2.705683748,0.1958342817
2785.03,-0.05,-0.00384707625,-0.009454432781,0,107.712234,0.0200786734,-0.3662560527,-31.88538849,0.4750286902,-0.2923398354,-1.530649305,-0.09541668252,-1.745159137,-2.730447971,0.1942427797
2785.06,-0.05,-0.00384707625,-0.009454432781,0,107.7116191,0.009533063827,-0.3959921264,-31.89837506,0.5061817927,-0.2912353518,-1.619995066,-0.09467819453,-1.74113778,-2.769459363,0.1918724258
2785.09,-0.05,-0.00384707625,-0.009454432781,0,107.7105845,-0.004143405077,-0.4343650304,-31.9151167,0.5469070621,-0.2897885806,-1.73797608,-0.09394736835,-1.726681235,-2.824938235,0.1887374467
2785.11,-0.05,-0.00384707625,-0.009454432781,0,107.7099821,-0.01079228253,-0.4529164913,-31.92322135,0.5668232654,-0.2890803573,-1.796178253,-0.09368765603,-1.715728829,-2.854147528,0.1871781987
2785.15,-0.05,-0.00384707625,-0.009454432781,0,107.7086086,-0.02363490051,-0.4885678501,-31.93873966,0.6055545516,-0.2877026318,-1.910376087,-0.09337958396,-1.686795164,-2.915455847,0.1840703678
2785.18,-0.05,-0.00384707625,-0.009454432781,0,107.7074321,-0.03283419981,-0.5139051441,-31.94975378,0.6334859281,-0.2867098793,-1.99362354,-0.09333052034,-1.659299274,-2.963913039,0.1817442148
2785.2,-0.05,-0.00384707625,-0.009454432781,0,107.7061417,-0.0416203455,-0.537927935,-31.96014635,0.6603246471,-0.2857580188,-2.074390148,-0.09342176248,-1.627192824,-3.014431433,0.1794179539
2785.22,-0.05,-0.00384707625,-0.009454432781,0,107.7047392,-0.04995478994,-0.5605420952,-31.96982842,0.6859576743,-0.2848520822,-2.152320617,-0.09364364458,-1.590812763,-3.066946006,0.1770882072
2785.24,-0.05,-0.00384707625,-0.009454432781,0,107.7037481,-0.05525428266,-0.5747960822,-31.97590785,0.7023257373,-0.2842760628,-2.202534319,-0.09385908399,-1.564357249,-3.103028649,0.175531521
2785.26,-0.05,-0.00384707625,-0.009454432781,0,107.7021684,-0.06279399677,-0.5948846412,-31.98438091,0.7257246281,-0.2834575453,-2.2750163,-0.09426514407,-1.521636642,-3.158702394,0.1731891239
2785.29,-0.05,-0.00384707625,-0.009454432781,0,107.6999227,-0.07204147417,-0.6191627156,-31.99439758,0.7546417419,-0.2824572127,-2.365920503,-0.09493553803,-1.459576709,-3.235690154,0.1700486312
2785.31,-0.05,-0.00384707625,-0.009454432781,0,107.6987396,-0.07631342968,-0.630190423,-31.99886179,0.7680713342,-0.2819985904,-2.408741599,-0.09531588212,-1.426609698,-3.275302389,0.1684696744
2785.34,-0.05,-0.00384707625,-0.009454432781,0,107.6962675,-0.08412653308,-0.6499587632,-32.00662111,0.7927772256,-0.281169406,-2.488785194,-0.0961278252,-1.357361299,-3.356614036,0.1652922706
2785.36,-0.05,-0.00384707625,-0.009454432781,0,107.6949831,-0.08765993012,-0.6586798615,-32.0099041,0.8040212457,-0.2808004211,-2.525889711,-0.09654730958,-1.321304826,-3.398250396,0.1636933576
2785.39,-0.05,-0.00384707625,-0.009454432781,0,107.6923293,-0.09396081663,-0.6737600519,-32.01522232,0.8242258683,-0.2801566459,-2.594011123,-0.09739347052,-1.246888922,-3.483319563,0.1604745696
2785.41,-0.05,-0.00384707625,-0.009454432781,0,107.6909648,-0.09673162337,-0.6801123169,-32.01728269,0.8331662516,-0.2798830441,-2.624944078,-0.09780306162,-1.208753709,-3.52668412,0.1588547649
2785.44,-0.05,-0.00384707625,-0.009454432781,0,107.6881732,-0.1014950486,-0.6904343461,-32.02013736,0.8486874732,-0.2794337842,-2.680386173,-0.09857046095,-1.131182355,-3.614897691,0.1555953945
2785.46,-0.05,-0.00384707625,-0.009454432781,0,107.6867512,-0.1034938055,-0.6944084657,-32.02096882,0.8552598802,-0.2792584472,-2.704844732,-0.09892102628,-1.0919642,-3.65967495,0.1539564528
2785.5,-0.05,-0.00384707625,-0.009454432781,0,107.6838672,-0.1067232546,-0.7000044136,-32.02141521,0.8660214795,-0.2790065447,-2.747152222,-0.09952487966,-1.013197971,-3.750388254,0.1506622462
2785.52,-0.05,-0.00384707625,-0.009454432781,0,107.6816762,-0.1084708566,-0.7021703529,-32.02067284,0.8720133904,-0.2789031788,-2.773066923,-0.09988072399,-0.9542436566,-3.819292228,0.148179592
2785.53,-0.05,-0.00384707625,-0.009454432781,0,107.680214,-0.1093262336,-0.7026679414,-32.01972273,0.8750265895,-0.278874364,-2.787572063,-0.1000684742,-0.9151873343,-3.865572738,0.1465199462
2785.57,-0.05,-0.00384707625,-0.009454432781,0,107.6772776,-0.1102964584,-0.7014399983,-32.01669233,0.8787258982,-0.2789111735,-2.809965123,-0.1003058067,-0.8381040446,-3.958794598,0.1431929449
2785.58,-0.05,-0.00384707625,-0.009454432781,0,107.6758117,-0.1104173706,-0.6997439943,-32.01463627,0.879430865,-0.2789755008,-2.81788133,-0.100352655,-0.8002639459,-4.005662595,0.1415271507
2785.62,-0.05,-0.00384707625,-0.009454432781,0,107.6728967,-0.1099442131,-0.6942680387,-32.00946957,0.8786091769,-0.2791920172,-2.827259549,-0.1003100695,-0.726431187,-4.099731438,0.1381948793
2785.63,-0.05,-0.00384707625,-0.009454432781,0,107.6714524,-0.1093661209,-0.6905257463,-32.00641537,0.8771100924,-0.279342692,-2.828778181,-0.1002156972,-0.6906076677,-4.146860944,0.1365299673
2785.66,-0.05,-0.00384707625,-0.009454432781,0,107.6700201,-0.108564488,-0.6861401378,-32.00305513,0.8749062441,-0.2795203323,-2.828228008,-0.1000738606,-0.6556196341,-4.194007105,0.1348669485
2785.69,-0.05,-0.00384707625,-0.009454432781,0,107.6665065,-0.1056127635,-0.67250153,-31.99338333,0.8664293114,-0.280075157,-2.818065534,-0.09953621282,-0.5722926261,-4.311721778,0.1307225369
2785.71,-0.05,-0.00384707625,-0.009454432781,0,107.6651336,-0.1040742702,-0.6660373552,-31.98907162,0.8619023964,-0.2803385856,-2.810605777,-0.09924905939,-0.5408018367,-4.358660452,0.1290718675
2785.74,-0.05,-0.00384707625,-0.009454432781,0,107.6624554,-0.1004073934,-0.6515125748,-31.97972716,0.8510172404,-0.280929606,-2.790148991,-0.09857439987,-0.4813222873,-4.452110509,0.1257862546
2785.76,-0.05,-0.00384707625,-0.009454432781,0,107.6611539,-0.09830046502,-0.6435041107,-31.97476036,0.8447045725,-0.2812547393,-2.777265491,-0.09819471623,-0.4534474822,-4.498561139,0.1241523366
2785.79,-0.05,-0.00384707625,-0.009454432781,0,107.6586355,-0.09356835764,-0.6261272286,-31.96429081,0.8304596245,-0.2819577281,-2.746494383,-0.09736734324,-0.4016832261,-4.590769026,0.1209044839
2785.81,-0.05,-0.00384707625,-0.009454432781,0,107.6574221,-0.09095205396,-0.6168128507,-31.95879084,0.8225779236,-0.282332738,-2.728737074,-0.09693215262,-0.3778833385,-4.636471575,0.1192912273
2785.84,-0.05,-0.00384707625,-0.009454432781,0,107.6550952,-0.08528581562,-0.5970759012,-31.947482,0.8054275003,-0.2831232676,-2.688822718,-0.09604545414,-0.3346419471,-4.72694542,0.1160868945
2785.86,-0.05,-0.00384707625,-0.009454432781,0,107.6539846,-0.08224607106,-0.5867094858,-31.94167306,0.7962130435,-0.2835360625,-2.666809429,-0.09560211164,-0.3152659829,-4.771668821,0.1144959523
2785.89,-0.05,-0.00384707625,-0.009454432781,0,107.651876,-0.07578865916,-0.565124151,-31.92980306,0.7766446618,-0.284389659,-2.619042647,-0.0947494613,-0.2811354729,-4.859977937,0.1113361886
2785.91,-0.05,-0.00384707625,-0.009454432781,0,107.6508805,-0.07239602813,-0.5539640047,-31.9238076,0.7663473799,-0.2848278716,-2.593442425,-0.09435165059,-0.2664217585,-4.903523153,0.1097668681
2785.93,-0.05,-0.00384707625,-0.009454432781,0,107.6490126,-0.06531970107,-0.5310526255,-31.91174397,0.7448699805,-0.2857206307,-2.53920001,-0.09363604956,-0.2417699501,-4.98930331,0.1066475446
2785.97,-0.05,-0.00384707625,-0.009454432781,0,107.6477231,-0.05978676214,-0.513464419,-31.90266395,0.7281031496,-0.286399255,-2.496169879,-0.09319673414,-0.2274906998,-5.052428218,0.1043229592
2785.98,-0.05,-0.00384707625,-0.009454432781,0,107.6469179,-0.05601620573,-0.501600603,-31.89665999,0.716665758,-0.2868537942,-2.466515521,-0.09295952775,-0.2199809582,-5.093908285,0.1027790717
2786.02,-0.05,-0.00384707625,-0.009454432781,0,107.6454418,-0.04830786773,-0.4776655173,-31.88478175,0.6932976947,-0.2877626922,-2.405248016,-0.09263680852,-0.2097701487,-5.175365954,0.09970180779
2786.04,-0.05,-0.00384707625,-0.009454432781,0,107.644457,-0.04240957198,-0.4596391292,-31.87600668,0.6754527408,-0.288439549,-2.357900559,-0.09255118505,-0.2062844616,-5.235104565,0.09739952721
2786.06,-0.05,-0.00384707625,-0.009454432781,0,107.6438531,-0.03844754244,-0.447638402,-31.87028514,0.6634561126,-0.2888867355,-2.325820929,-0.09257577084,-0.2059221149,-5.274269656,0.09586542193
2786.09,0,-0.00384707625,-0.009454432781,0,107.6427907,-0.03047956076,-0.4237881564,-31.85913652,0.6393495284,-0.2897666822,-2.260782292,-0.09283288304,-0.2098200055,-5.350986617,0.09279401071
2786.11,0,-0.00384707625,-0.009454432781,0,107.6423298,-0.0384774903,-0.7720442838,-31.86411342,0.6263371588,-0.2901978218,-2.267856136,-0.08773327589,-0.1540871027,-5.388529805,0.09125433887
2786.13,0,-0.00384707625,-0.009454432781,0,107.6417426,-0.02936484607,-0.7180711558,-31.85235812,0.6034476786,-0.2908346901,-2.311737608,-0.07343333075,0.01328506092,-5.445660872,0.08919694074
2786.17,0,-0.00384707625,-0.009454432781,0,107.6411704,-0.01544095491,-0.6493560683,-31.83719545,0.5664783333,-0.2917357589,-2.318594346,-0.05729335626,0.2226815476,-5.522942663,0.08697787988
2786.19,0,-0.00384707625,-0.009454432781,0,107.6409915,-0.007723291326,-0.6154269413,-31.8293738,0.5453978227,-0.2922349404,-2.303660256,-0.05038929774,0.3210951393,-5.561535249,0.08606226528
2786.21,0,-0.00384707625,-0.009454432781,0,107.6408672,0.004699409548,-0.5645153499,-31.81706544,0.5107538725,-0.2930688366,-2.262040611,-0.04136625845,0.4604321138,-5.61881993,0.08489564843
2786.24,0,-0.00384707625,-0.009454432781,0,107.6410078,0.02272553884,-0.4959694124,-31.79905417,0.4593567821,-0.2943673516,-2.17617783,-0.03157921747,0.6300648541,-5.693230459,0.08366631072
2786.26,0,-0.00384707625,-0.009454432781,0,107.6412154,0.03231933663,-0.4612493084,-31.78922002,0.4316203379,-0.2951028788,-2.122190958,-0.02755544255,0.7077073614,-5.729282205,0.08316805639
2786.29,0,-0.00384707625,-0.009454432781,0,107.6419291,0.05252905291,-0.3907813233,-31.76795338,0.3725155086,-0.2967486755,-1.995674777,-0.02104236552,0.8481903481,-5.798500511,0.08235792915
2786.31,0,-0.00384707625,-0.009454432781,0,107.6424426,0.06310934051,-0.3550377755,-31.75651421,0.3413282881,-0.2976556373,-1.924354359,-0.01848543126,0.9108899583,-5.831469739,0.08202943882
2786.34,0,-0.00384707625,-0.009454432781,0,107.6437997,0.0851209273,-0.2826537128,-31.7321608,0.2761435115,-0.2996215999,-1.768207224,-0.0146387068,1.020954283,-5.893706661,0.08148795589
2786.36,0,-0.00384707625,-0.009454432781,0,107.6446492,0.09650240826,-0.246095435,-31.71937617,0.2423311741,-0.3006720173,-1.684303534,-0.01330195512,1.068257397,-5.922830869,0.08126115575
2786.39,0,-0.00384707625,-0.009454432781,0,107.6467024,0.1199148462,-0.172507499,-31.69286096,0.1727306005,-0.3028815741,-1.506909744,-0.01171662432,1.147348548,-5.976787492,0.08086363638
2786.42,0,-0.00384707625,-0.009454432781,0,107.6479102,0.1319072612,-0.1355980658,-31.67923511,0.1371273952,-0.3040289667,-1.414175511,-0.01145055071,1.179152072,-6.001518746,0.08068093218
2786.44,0,-0.00384707625,-0.009454432781,0,107.6499505,0.1501689761,-0.08027410043,-31.6586199,0.08297678476,-0.3057867659,-1.271016647,-0.01168246891,1.217246771,-6.035688323,0.0804106347
2786.46,0,-0.00384707625,-0.009454432781,0,107.6522742,0.1686985145,-0.02520407447,-31.63795584,0.02820382047,-0.3075701502,-1.123972888,-0.01266004139,1.243933371,-6.066244547,0.08012807321
2786.49,0,-0.00384707625,-0.009454432781,0,107.6556697,0.1731517529,0.04743722925,-31.6108535,-0.04527645329,-0.3099509631,-0.9236730469,-0.01411150479,1.262038905,-6.101216544,0.07970202799
2786.51,0,-0.00384707625,-0.009454432781,0,107.6572476,0.1578610994,0.08330228925,-31.5979314,-0.0820151734,-0.3111055385,-0.8223619582,-0.012832273,1.263630537,-6.116189491,0.07948094943
2786.54,0,-0.00384707625,-0.009454432781,0,107.6601239,0.1284513746,0.153789734,-31.5750544,-0.1550751825,-0.3131822213,-0.6187909506,-0.006163932334,1.252392194,-6.141058263,0.079144215
2786.56,0,-0.00384707625,-0.009454432781,0,107.6614233,0.1143996868,0.188277493,-31.56569192,-0.1912368783,-0.3140510626,-0.5170557397,-0.001232935892,1.239825687,-6.150947224,0.07907104294
2786.59,0,-0.00384707625,-0.009454432781,0,107.6637486,0.08767878786,0.2554197148,-31.55234654,-0.2624410104,-0.3153552646,-0.314937479,0.01073481413,1.20150739,-6.165649387,0.07919307837
2786.62,0,-0.00384707625,-0.009454432781,0,107.6647762,0.0750420671,0.2879531059,-31.54860768,-0.297337402,-0.315766267,-0.2150295822,0.01735918783,1.176057853,-6.170480952,0.07940877294
2786.63,0,-0.00384707625,-0.009454432781,0,107.6661497,0.05701699774,0.3352954736,-31.54683452,-0.348604483,-0.3160627237,-0.06724119604,0.02755968347,1.130465314,-6.174619794,0.07994150894
2786.67,0,-0.00384707625,-0.009454432781,0,107.6676836,0.03470407567,0.3954150756,-31.55175597,-0.4146050652,-0.3158559742,0.1248302644,0.04079526823,1.056690672,-6.174443384,0.08104604664
2786.68,0,-0.00384707625,-0.009454432781,0,107.6683232,0.02428385299,0.4240769518,-31.55722016,-0.4464579328,-0.3155014578,0.2182846252,0.04693881198,1.014618427,-6.17197136,0.08176085138
2786.72,0,-0.00384707625,-0.009454432781,0,107.6693586,0.004896317157,0.4783784453,-31.57368782,-0.5075843945,-0.3143238516,0.3991123721,0.05769856205,0.9209700925,-6.162412166,0.08348334993
2786.74,0,-0.00384707625,-0.009454432781,0,107.6697583,-0.004092077291,0.5039359457,-31.58448394,-0.5367532834,-0.3135198571,0.4861462139,0.06214018003,0.869745527,-6.155394969,0.08447278765
2786.76,0,-0.00384707625,-0.009454432781,0,107.6702146,-0.01671088708,0.5401771879,-31.60346734,-0.5786285901,-0.3120764306,0.6120311121,0.06744546494,0.7879081463,-6.142181243,0.0860863903
2786.78,0,-0.00384707625,-0.009454432781,0,107.6704313,-0.02455318969,0.5628923422,-31.6177309,-0.6052288543,-0.3109737762,0.6926343643,0.07000950319,0.7302777751,-6.131641811,0.0872304523
2786.81,0,-0.00384707625,-0.009454432781,0,107.6706691,-0.04226595335,0.6144162429,-31.65803124,-0.6668389819,-0.3078222271,0.8815782082,0.07284268729,0.576761241,-6.099570756,0.09023295086
2786.83,0,-0.00384707625,-0.009454432781,0,107.6706701,-0.04548964737,0.6237947186,-31.66670914,-0.6782876134,-0.3071375052,0.9170967233,0.07279077154,0.5446195681,-6.092224169,0.09084418442
2786.87,0,-0.00384707625,-0.009454432781,0,107.6704418,-0.06005886782,0.6659186953,-31.71208723,-0.7309650203,-0.3035318837,1.082644145,0.0695025413,0.3779563231,-6.051184162,0.09386005808
2786.88,0,-0.00384707625,-0.009454432781,0,107.670255,-0.06518672219,0.6805113313,-31.73083702,-0.7498483079,-0.3020338967,1.143042047,0.0668372571,0.3089286998,-6.032884695,0.09501665808
2786.92,0,-0.00384707625,-0.009454432781,0,107.6697345,-0.07426637721,0.7057747723,-31.76854303,-0.7837592693,-0.2990061487,1.253464827,0.05938908767,0.1677983454,-5.99336619,0.097175892
2786.94,0,-0.00384707625,-0.009454432781,0,107.6692311,-0.08008051126,0.721274623,-31.79656794,-0.8057652535,-0.2967485513,1.32698691,0.05212417838,0.05994816576,-5.961401678,0.09861580162
2786.96,0,-0.00384707625,-0.009454432781,0,107.6688445,-0.08349004868,0.7299652594,-31.81491097,-0.8187872344,-0.2952674437,1.371494416,0.04657860481,-0.0125828326,-5.939095824,0.09947095377
2786.98,0,-0.00384707625,-0.009454432781,0,107.6679759,-0.0892034673,0.7434280076,-31.85031614,-0.8408544418,-0.2923984444,1.449563656,0.03404118711,-0.1583995926,-5.892364977,0.1008898345
2787.02,0,-0.00384707625,-0.009454432781,0,107.6672526,-0.09254890748,0.7501315449,-31.87549394,-0.8539275044,-0.2903550685,1.498476421,0.02358585856,-0.2677732135,-5.855702689,0.1016692696
2787.03,0,-0.00384707625,-0.009454432781,0,107.6667431,-0.09433750242,0.7530088646,-31.89148633,-0.8609955481,-0.2890551325,1.526487287,0.01622074426,-0.3403930817,-5.830607366,0.1020415359
2787.06,0,-0.00384707625,-0.009454432781,0,107.6656755,-0.09686548828,0.7550210026,-31.92130961,-0.8712195574,-0.2866244959,1.571516886,0.0007800571183,-0.4842231534,-5.779123177,0.1024109133
2787.09,0,-0.00384707625,-0.009454432781,0,107.6648472,-0.0978706337,0.7533385725,-31.94169283,-0.8755170936,-0.2849627837,1.595754702,-0.01122623459,-0.5902720094,-5.739617967,0.1023459015
2787.11,0,-0.00384707625,-0.009454432781,0,107.6642888,-0.09812261822,0.7507429467,-31.95427262,-0.8768089878,-0.2839363957,1.607432513,-0.01934089586,-0.6598326896,-5.712969496,0.1021352698
2787.13,0,-0.00384707625,-0.009454432781,0,107.6634526,-0.09788461579,0.7447087081,-31.97158869,-0.8764388311,-0.282522701,1.618335038,-0.03156990607,-0.7621217041,-5.672677942,0.1015654672
2787.17,0,-0.00384707625,-0.009454432781,0,107.6623526,-0.09643732041,0.7328265395,-31.99171668,-0.8717657361,-0.2808765317,1.620804841,-0.0477869352,-0.8939903414,-5.618666724,0.1003310954
2787.19,0,-0.00384707625,-0.009454432781,0,107.6615598,-0.0945397508,0.7211881232,-32.00463973,-0.8652464541,-0.2798215228,1.613882857,-0.05972475299,-0.9889672031,-5.578190263,0.09905275885
